var forefields = {"type":"FeatureCollection","features":[{"type":"Feature","properties":{"marker-color":"#7e7e7e","marker-size":"medium","marker-symbol":"","name":"Tsanfleuron"},"geometry":{"type":"Point","coordinates":[7.24720001220703,46.317947626672776]}},{"type":"Feature","properties":{"marker-color":"#7e7e7e","marker-size":"medium","marker-symbol":"","name":"Wildhorn"},"geometry":{"type":"Point","coordinates":[7.38532,46.339567]}},{"type":"Feature","properties":{"marker-color":"#7e7e7e","marker-size":"medium","marker-symbol":"","name":"Lang"},"geometry":{"type":"Point","coordinates":[7.918759,46.455037]}},{"type":"Feature","properties":{"marker-color":"#7e7e7e","marker-size":"medium","marker-symbol":"","name":"Schwarzberg"},"geometry":{"type":"Point","coordinates":[7.945753,46.029671]}},{"type":"Feature","properties":{"marker-color":"#7e7e7e","marker-size":"medium","marker-symbol":"","name":"Upper Lang"},"geometry":{"type":"Point","coordinates":[7.921213,46.460778]}},{"type":"Feature","properties":{"marker-color":"#7e7e7e","marker-size":"medium","marker-symbol":"","name":"Usser Tal"},"geometry":{"type":"Point","coordinates":[7.83449,46.45576]}}]}
